[
  {
    "image": "",
    "name": "Gotham Archery",
    "category": "",
    "description": "",
    "hours": {
      "Monday": "",
      "Tuesday": "",
      "Wednesday": "",
      "Thursday": "",
      "Friday": "",
      "Saturday": "",
      "Sunday": ""
    },
    "address": "480 Baltic St, Brooklyn, NY 11217",
    "phone": "(718) 858-5060"
  },
  {
    "image": "",
    "name": " Area 53 Paintball",
    "category": "",
    "description": "",
    "hours": {
      "Monday": "",
      "Tuesday": "",
      "Wednesday": "",
      "Thursday": "",
      "Friday": "",
      "Saturday": "",
      "Sunday": ""
    },
    "address": "616 Scholes St, Brooklyn, NY 11237",
    "phone": "(347) 748-1007"
  },
  {
    "image": "",
    "name": "Break Bar",
    "category": "",
    "description": "",
    "hours": {
      "Monday": "",
      "Tuesday": "",
      "Wednesday": "",
      "Thursday": "",
      "Friday": "",
      "Saturday": "",
      "Sunday": ""
    },
    "address": "458 9th Ave, New York, NY 10018",
    "phone": " (212) 933-0929"
  },
  {
    "image": "",
    "name": "The Gutter",
    "category": "",
    "description": "",
    "hours": {
      "Monday": "",
      "Tuesday": "",
      "Wednesday": "",
      "Thursday": "",
      "Friday": "",
      "Saturday": "",
      "Sunday": ""
    },
    "address": "200 N 14th St, Brooklyn, NY 11249",
    "phone": "(718) 387-3585"
  },
  {
    "image": "",
    "name": "",
    "category": "",
    "description": "",
    "hours": {
      "Monday": "",
      "Tuesday": "",
      "Wednesday": "",
      "Thursday": "",
      "Friday": "",
      "Saturday": "",
      "Sunday": ""
    },
    "address": "136 Metropolitan Ave, Brooklyn, NY 11249",
    "phone": "(646) 963-9288"
  },
  {
    "image": "",
    "name": "Syndicated",
    "category": "",
    "description": "",
    "hours": {
      "Monday": "",
      "Tuesday": "",
      "Wednesday": "",
      "Thursday": "",
      "Friday": "",
      "Saturday": "",
      "Sunday": ""
    },
    "address": "40 Bogart St, Brooklyn, NY 11206",
    "phone": "(718) 386-3399"
  },
  {
    "image": "",
    "name": "Brooklyn Boulders Queensbridge",
    "category": "",
    "description": "",
    "hours": {
      "Monday": "",
      "Tuesday": "",
      "Wednesday": "",
      "Thursday": "",
      "Friday": "",
      "Saturday": "",
      "Sunday": ""
    },
    "address": "23-10 41st Ave, Queens, NY 11101",
    "phone": " (718) 482-7078"
  },
  {
    "image": "",
    "name": "VITAL Gym",
    "category": "",
    "description": "",
    "hours": {
      "Monday": "",
      "Tuesday": "",
      "Wednesday": "",
      "Thursday": "",
      "Friday": "",
      "Saturday": "",
      "Sunday": ""
    },
    "address": "221 N 14th St, Brooklyn, NY 11249",
    "phone": "(716) 220-8195"
  }
]